[{
    "entityId": 3,
    "name": "Gellerup Bibliotek",
    "image": null,
    "url": null,
    "telephone": null,
    "disabilityAccess": false,
    "mail": "Gellerupbibliotek@aarhus.dk",
    "street": "Karen Blixens Boulevard 23",
    "suite": null,
    "region": null,
    "city": "Brabrand",
    "country": null,
    "postalCode": "8220",
    "coordinates": [
        56.1597205,
        10.13466085
    ]
},{
    "entityId": 5,
    "name": "Aros",
    "image": null,
    "url": "http:\/\/www.aros.dk\/",
    "telephone": "87306600",
    "disabilityAccess": false,
    "mail": "info@aros.dk",
    "street": "Aros All\u00e9 2",
    "suite": "",
    "region": "Jylland",
    "city": "Aarhus C",
    "country": "Danmark",
    "postalCode": "8000",
    "coordinates": [
        56.15390543,
        10.19961783
    ]
},{
    "entityId": 9,
    "name": "Hovedbiblioteket",
    "image": null,
    "url": null,
    "telephone": null,
    "disabilityAccess": false,
    "mail": "dokk1-hovedbiblioteket@aarhus.dk",
    "street": "Hack Kampmanns Plads 2",
    "suite": null,
    "region": null,
    "city": "Aarhus",
    "country": null,
    "postalCode": "8000",
    "coordinates": [
        56.15343598,
        10.21377573
    ]
},{
    "entityId": 11,
    "name": "Bora Bora",
    "image": null,
    "url": "https:\/\/www.bora-bora.dk\/",
    "telephone": "86190079",
    "disabilityAccess": false,
    "mail": "info@bora-bora.dk",
    "street": "Valdemarsgade 1",
    "suite": "",
    "region": "Jylland",
    "city": "Aarhus C",
    "country": "Danmark",
    "postalCode": "8000",
    "coordinates": [
        56.15182645,
        10.19903581
    ]
},{
    "entityId": 13,
    "name": "Train Music",
    "image": null,
    "url": null,
    "telephone": null,
    "disabilityAccess": false,
    "mail": null,
    "street": "Toldbodgade 6",
    "suite": null,
    "region": "Jylland",
    "city": "Aarhus C",
    "country": "Danmark",
    "postalCode": "8000",
    "coordinates": [
        null,
        null
    ]
},{
    "entityId": 4,
    "name": "Gellerup Bibliotek",
    "image": null,
    "url": null,
    "telephone": null,
    "disabilityAccess": false,
    "mail": "Gellerupbibliotek@aarhus.dk",
    "street": "Karen Blixens Boulevard 23",
    "suite": null,
    "region": null,
    "city": "Brabrand",
    "country": null,
    "postalCode": "8220",
    "coordinates": [
        56.1597205,
        10.13466085
    ]
},{
    "entityId": 7,
    "name": "\u00c5by Bibliotek",
    "image": null,
    "url": null,
    "telephone": null,
    "disabilityAccess": false,
    "mail": "aabybibliotek@aarhus.dk",
    "street": "Ludvig Feilbergs Vej 7",
    "suite": null,
    "region": null,
    "city": "\u00c5byh\u00f8j",
    "country": null,
    "postalCode": "8230",
    "coordinates": [
        56.15642032,
        10.16258696
    ]
},{
    "entityId": 8,
    "name": "Tilst Bibliotek",
    "image": null,
    "url": null,
    "telephone": null,
    "disabilityAccess": false,
    "mail": "Tilstbibliotek@aarhus.dk",
    "street": "Tilst Skolevej 13 A",
    "suite": null,
    "region": null,
    "city": "Tilst",
    "country": null,
    "postalCode": "8381",
    "coordinates": [
        56.18834182,
        10.11068439
    ]
},{
    "entityId": 10,
    "name": "Hovedbiblioteket",
    "image": null,
    "url": null,
    "telephone": null,
    "disabilityAccess": false,
    "mail": "dokk1-hovedbiblioteket@aarhus.dk",
    "street": "Hack Kampmanns Plads 2",
    "suite": null,
    "region": null,
    "city": "Aarhus",
    "country": null,
    "postalCode": "8000",
    "coordinates": [
        56.15343598,
        10.21377573
    ]
},{
    "entityId": 14,
    "name": "Train Music",
    "image": null,
    "url": null,
    "telephone": null,
    "disabilityAccess": false,
    "mail": null,
    "street": "Toldbodgade 6",
    "suite": null,
    "region": "Jylland",
    "city": "Aarhus C",
    "country": "Danmark",
    "postalCode": "8000",
    "coordinates": [
        null,
        null
    ]
},{
    "entityId": 2,
    "name": "Aros",
    "image": null,
    "url": "http:\/\/www.aros.dk\/",
    "telephone": "87306600",
    "disabilityAccess": false,
    "mail": "info@aros.dk",
    "street": "Aros All\u00e9 2",
    "suite": "",
    "region": "Jylland",
    "city": "Aarhus C",
    "country": "Danmark",
    "postalCode": "8000",
    "coordinates": [
        56.15390543,
        10.19961783
    ]
},{
    "entityId": 6,
    "name": "Tilst Bibliotek",
    "image": null,
    "url": null,
    "telephone": null,
    "disabilityAccess": false,
    "mail": "Tilstbibliotek@aarhus.dk",
    "street": "Tilst Skolevej 13 A",
    "suite": null,
    "region": null,
    "city": "Tilst",
    "country": null,
    "postalCode": "8381",
    "coordinates": [
        56.18834182,
        10.11068439
    ]
},{
    "entityId": 1,
    "name": "ITK Development",
    "image": null,
    "url": "https:\/\/itk.aarhus.dk\/om-itk\/afdelinger\/development\/",
    "telephone": null,
    "disabilityAccess": true,
    "mail": "itkdev@mkb.aarhus.dk",
    "street": "Hack Kampmanns Plads 2",
    "suite": "2.2",
    "region": "Jylland",
    "city": "Aarhus",
    "country": "Danmark",
    "postalCode": "8000",
    "coordinates": [
        56.1507645,
        10.2112699
    ]
},{
    "entityId": 12,
    "name": "Bora Bora",
    "image": null,
    "url": "https:\/\/www.bora-bora.dk\/",
    "telephone": "86190079",
    "disabilityAccess": false,
    "mail": "info@bora-bora.dk",
    "street": "Valdemarsgade 1",
    "suite": "",
    "region": "Jylland",
    "city": "Aarhus C",
    "country": "Danmark",
    "postalCode": "8000",
    "coordinates": [
        56.15182645,
        10.19903581
    ]
},{
    "entityId": 15,
    "name": "Matilde Hobolt Mortensen",
    "image": null,
    "url": null,
    "telephone": "+4542416775",
    "disabilityAccess": false,
    "mail": null,
    "street": "Hack Kampmanns Plads 2",
    "suite": "2.2",
    "region": "Jylland",
    "city": "Aarhus",
    "country": "Danmark",
    "postalCode": "8000",
    "coordinates": [
        56.1507645,
        10.2112699
    ]
}]